transforms: 
  - 
    header: 
      seq: 0
      stamp: 
        secs: 11
        nsecs: 321000000
      frame_id: "base_link"
    child_frame_id: "front_left_steering_link"
    transform: 
      translation: 
        x: 0.923
        y: 0.642
        z: 0.3
      rotation: 
        x: 0.0
        y: 0.0
        z: 5.325517595799771e-07
        w: 0.9999999999998581
  - 
    header: 
      seq: 0
      stamp: 
        secs: 11
        nsecs: 321000000
      frame_id: "front_left_steering_link"
    child_frame_id: "front_left_wheel_link"
    transform: 
      translation: 
        x: 0.0
        y: 0.0
        z: 0.0
      rotation: 
        x: 0.0
        y: 0.001618567766144902
        z: 0.0
        w: 0.9999986901183353
  - 
    header: 
      seq: 0
      stamp: 
        secs: 11
        nsecs: 321000000
      frame_id: "base_link"
    child_frame_id: "front_right_steering_link"
    transform: 
      translation: 
        x: 0.923
        y: -0.642
        z: 0.3
      rotation: 
        x: 0.0
        y: 0.0
        z: -5.196000554263714e-07
        w: 0.999999999999865
  - 
    header: 
      seq: 0
      stamp: 
        secs: 11
        nsecs: 321000000
      frame_id: "front_right_steering_link"
    child_frame_id: "front_right_wheel_link"
    transform: 
      translation: 
        x: 0.0
        y: 0.0
        z: 0.0
      rotation: 
        x: 0.0
        y: 0.0016185944427131067
        z: 0.0
        w: 0.9999986900751572
  - 
    header: 
      seq: 0
      stamp: 
        secs: 11
        nsecs: 321000000
      frame_id: "base_link"
    child_frame_id: "rear_left_wheel_link"
    transform: 
      translation: 
        x: -0.945
        y: 0.642
        z: 0.3
      rotation: 
        x: 0.0
        y: 0.0016231158327448159
        z: 0.0
        w: 0.9999986827466293
  - 
    header: 
      seq: 0
      stamp: 
        secs: 11
        nsecs: 321000000
      frame_id: "base_link"
    child_frame_id: "rear_right_wheel_link"
    transform: 
      translation: 
        x: -0.945
        y: -0.642
        z: 0.3
      rotation: 
        x: 0.0
        y: 0.0016232536708218176
        z: 0.0
        w: 0.9999986825228921
---
transforms: 
  - 
    header: 
      seq: 0
      stamp: 
        secs: 11
        nsecs: 332000000
      frame_id: "world"
    child_frame_id: "base_link"
    transform: 
      translation: 
        x: 0.0009755927981339856
        y: 1.5084962350884802e-07
        z: -0.0016571248906836185
      rotation: 
        x: -2.011090510619258e-08
        y: 3.413098156886837e-05
        z: 3.359292511382399e-08
        w: 0.9999999994175374
---
transforms: 
  - 
    header: 
      seq: 0
      stamp: 
        secs: 11
        nsecs: 341000000
      frame_id: "base_link"
    child_frame_id: "front_left_steering_link"
    transform: 
      translation: 
        x: 0.923
        y: 0.642
        z: 0.3
      rotation: 
        x: 0.0
        y: 0.0
        z: 5.325520109344699e-07
        w: 0.9999999999998581
  - 
    header: 
      seq: 0
      stamp: 
        secs: 11
        nsecs: 341000000
      frame_id: "front_left_steering_link"
    child_frame_id: "front_left_wheel_link"
    transform: 
      translation: 
        x: 0.0
        y: 0.0
        z: 0.0
      rotation: 
        x: 0.0
        y: 0.0016214772056253033
        z: 0.0
        w: 0.9999986854049718
  - 
    header: 
      seq: 0
      stamp: 
        secs: 11
        nsecs: 341000000
      frame_id: "base_link"
    child_frame_id: "front_right_steering_link"
    transform: 
      translation: 
        x: 0.923
        y: -0.642
        z: 0.3
      rotation: 
        x: 0.0
        y: 0.0
        z: -5.195997987428081e-07
        w: 0.999999999999865
  - 
    header: 
      seq: 0
      stamp: 
        secs: 11
        nsecs: 341000000
      frame_id: "front_right_steering_link"
    child_frame_id: "front_right_wheel_link"
    transform: 
      translation: 
        x: 0.0
        y: 0.0
        z: 0.0
      rotation: 
        x: 0.0
        y: 0.0016215036284224897
        z: 0.0
        w: 0.9999986853621275
  - 
    header: 
      seq: 0
      stamp: 
        secs: 11
        nsecs: 341000000
      frame_id: "base_link"
    child_frame_id: "rear_left_wheel_link"
    transform: 
      translation: 
        x: -0.945
        y: 0.642
        z: 0.3
      rotation: 
        x: 0.0
        y: 0.001626034143996202
        z: 0.0
        w: 0.9999986780056076
  - 
    header: 
      seq: 0
      stamp: 
        secs: 11
        nsecs: 341000000
      frame_id: "base_link"
    child_frame_id: "rear_right_wheel_link"
    transform: 
      translation: 
        x: -0.945
        y: -0.642
        z: 0.3
      rotation: 
        x: 0.0
        y: 0.0016261719301923407
        z: 0.0
        w: 0.9999986777815527
---
transforms: 
  - 
    header: 
      seq: 0
      stamp: 
        secs: 11
        nsecs: 352000000
      frame_id: "world"
    child_frame_id: "base_link"
    transform: 
      translation: 
        x: 0.0009773448364759558
        y: 1.5087553767382932e-07
        z: -0.0016571248906840478
      rotation: 
        x: -2.0110904232317543e-08
        y: 3.413098156864673e-05
        z: 3.35807892240758e-08
        w: 0.9999999994175374
---
transforms: 
  - 
    header: 
      seq: 0
      stamp: 
        secs: 11
        nsecs: 361000000
      frame_id: "base_link"
    child_frame_id: "front_left_steering_link"
    transform: 
      translation: 
        x: 0.923
        y: 0.642
        z: 0.3
      rotation: 
        x: 0.0
        y: 0.0
        z: 5.325522618448735e-07
        w: 0.9999999999998581
  - 
    header: 
      seq: 0
      stamp: 
        secs: 11
        nsecs: 361000000
      frame_id: "front_left_steering_link"
    child_frame_id: "front_left_wheel_link"
    transform: 
      translation: 
        x: 0.0
        y: 0.0
        z: 0.0
      rotation: 
        x: 0.0
        y: 0.0016243866450928674
        z: 0.0
        w: 0.9999986806831433
  - 
    header: 
      seq: 0
      stamp: 
        secs: 11
        nsecs: 361000000
      frame_id: "base_link"
    child_frame_id: "front_right_steering_link"
    transform: 
      translation: 
        x: 0.923
        y: -0.642
        z: 0.3
      rotation: 
        x: 0.0
        y: 0.0
        z: -5.195995411710663e-07
        w: 0.999999999999865
  - 
    header: 
      seq: 0
      stamp: 
        secs: 11
        nsecs: 361000000
      frame_id: "front_right_steering_link"
    child_frame_id: "front_right_wheel_link"
    transform: 
      translation: 
        x: 0.0
        y: 0.0
        z: 0.0
      rotation: 
        x: 0.0
        y: 0.0016244128141185937
        z: 0.0
        w: 0.9999986806406344
  - 
    header: 
      seq: 0
      stamp: 
        secs: 11
        nsecs: 361000000
      frame_id: "base_link"
    child_frame_id: "rear_left_wheel_link"
    transform: 
      translation: 
        x: -0.945
        y: 0.642
        z: 0.3
      rotation: 
        x: 0.0
        y: 0.0016289524552350726
        z: 0.0
        w: 0.9999986732560692
  - 
    header: 
      seq: 0
      stamp: 
        secs: 11
        nsecs: 361000000
      frame_id: "base_link"
    child_frame_id: "rear_right_wheel_link"
    transform: 
      translation: 
        x: -0.945
        y: -0.642
        z: 0.3
      rotation: 
        x: 0.0
        y: 0.001629090189549904
        z: 0.0
        w: 0.9999986730316968
---
transforms: 
  - 
    header: 
      seq: 0
      stamp: 
        secs: 11
        nsecs: 372000000
      frame_id: "world"
    child_frame_id: "base_link"
    transform: 
      translation: 
        x: 0.0009790968748187299
        y: 1.5090145185397693e-07
        z: -0.0016571248906844718
      rotation: 
        x: -2.011090335743429e-08
        y: 3.4130981568409296e-05
        z: 3.356865329026446e-08
        w: 0.9999999994175374
---
transforms: 
  - 
    header: 
      seq: 0
      stamp: 
        secs: 11
        nsecs: 381000000
      frame_id: "base_link"
    child_frame_id: "front_left_steering_link"
    transform: 
      translation: 
        x: 0.923
        y: 0.642
        z: 0.3
      rotation: 
        x: 0.0
        y: 0.0
        z: 5.325525123111878e-07
        w: 0.9999999999998581
  - 
    header: 
      seq: 0
      stamp: 
        secs: 11
        nsecs: 381000000
      frame_id: "front_left_steering_link"
    child_frame_id: "front_left_wheel_link"
    transform: 
      translation: 
        x: 0.0
        y: 0.0
        z: 0.0
      rotation: 
        x: 0.0
        y: 0.0016272960845489014
        z: 0.0
        w: 0.9999986759528502
  - 
    header: 
      seq: 0
      stamp: 
        secs: 11
        nsecs: 381000000
      frame_id: "base_link"
    child_frame_id: "front_right_steering_link"
    transform: 
      translation: 
        x: 0.923
        y: -0.642
        z: 0.3
      rotation: 
        x: 0.0
        y: 0.0
        z: -5.195992831552354e-07
        w: 0.999999999999865
  - 
    header: 
      seq: 0
      stamp: 
        secs: 11
        nsecs: 381000000
      frame_id: "front_right_steering_link"
    child_frame_id: "front_right_wheel_link"
    transform: 
      translation: 
        x: 0.0
        y: 0.0
        z: 0.0
      rotation: 
        x: 0.0
        y: 0.0016273219998018376
        z: 0.0
        w: 0.9999986759106778
  - 
    header: 
      seq: 0
      stamp: 
        secs: 11
        nsecs: 381000000
      frame_id: "base_link"
    child_frame_id: "rear_left_wheel_link"
    transform: 
      translation: 
        x: -0.945
        y: 0.642
        z: 0.3
      rotation: 
        x: 0.0
        y: 0.0016318707664609582
        z: 0.0
        w: 0.9999986684980143
  - 
    header: 
      seq: 0
      stamp: 
        secs: 11
        nsecs: 381000000
      frame_id: "base_link"
    child_frame_id: "rear_right_wheel_link"
    transform: 
      translation: 
        x: -0.945
        y: -0.642
        z: 0.3
      rotation: 
        x: 0.0
        y: 0.0016320084488953693
        z: 0.0
        w: 0.9999986682733246
---
transforms: 
  - 
    header: 
      seq: 0
      stamp: 
        secs: 11
        nsecs: 392000000
      frame_id: "world"
    child_frame_id: "base_link"
    transform: 
      translation: 
        x: 0.0009808489131628748
        y: 1.5092736611844127e-07
        z: -0.00165712489068491
      rotation: 
        x: -2.0110902487695014e-08
        y: 3.413098156817074e-05
        z: 3.355651735551816e-08
        w: 0.9999999994175374
---
transforms: 
  - 
    header: 
      seq: 0
      stamp: 
        secs: 11
        nsecs: 402000000
      frame_id: "base_link"
    child_frame_id: "front_left_steering_link"
    transform: 
      translation: 
        x: 0.923
        y: 0.642
        z: 0.3
      rotation: 
        x: 0.0
        y: 0.0
        z: 5.325527636656806e-07
        w: 0.9999999999998581
  - 
    header: 
      seq: 0
      stamp: 
        secs: 11
        nsecs: 402000000
      frame_id: "front_left_steering_link"
    child_frame_id: "front_left_wheel_link"
    transform: 
      translation: 
        x: 0.0
        y: 0.0
        z: 0.0
      rotation: 
        x: 0.0
        y: 0.001630205523992493
        z: 0.0
        w: 0.999998671214092
  - 
    header: 
      seq: 0
      stamp: 
        secs: 11
        nsecs: 402000000
      frame_id: "base_link"
    child_frame_id: "front_right_steering_link"
    transform: 
      translation: 
        x: 0.923
        y: -0.642
        z: 0.3
      rotation: 
        x: 0.0
        y: 0.0
        z: -5.195990264716721e-07
        w: 0.999999999999865
  - 
    header: 
      seq: 0
      stamp: 
        secs: 11
        nsecs: 402000000
      frame_id: "front_right_steering_link"
    child_frame_id: "front_right_wheel_link"
    transform: 
      translation: 
        x: 0.0
        y: 0.0
        z: 0.0
      rotation: 
        x: 0.0
        y: 0.001630231185473085
        z: 0.0
        w: 0.999998671172258
  - 
    header: 
      seq: 0
      stamp: 
        secs: 11
        nsecs: 402000000
      frame_id: "base_link"
    child_frame_id: "rear_left_wheel_link"
    transform: 
      translation: 
        x: -0.945
        y: 0.642
        z: 0.3
      rotation: 
        x: 0.0
        y: 0.0016347890776742778
        z: 0.0
        w: 0.999998663731443
  - 
    header: 
      seq: 0
      stamp: 
        secs: 11
        nsecs: 402000000
      frame_id: "base_link"
    child_frame_id: "rear_right_wheel_link"
    transform: 
      translation: 
        x: -0.945
        y: -0.642
        z: 0.3
      rotation: 
        x: 0.0
        y: 0.0016349267082278241
        z: 0.0
        w: 0.9999986635064363
---
transforms: 
  - 
    header: 
      seq: 0
      stamp: 
        secs: 11
        nsecs: 412000000
      frame_id: "world"
    child_frame_id: "base_link"
    transform: 
      translation: 
        x: 0.0009826009515070836
        y: 1.5095328041105445e-07
        z: -0.0016571248906853673
      rotation: 
        x: -2.0110901622725198e-08
        y: 3.413098156794878e-05
        z: 3.3544381416850634e-08
        w: 0.9999999994175374
---
